{
    "stops": {
        "ID150435": {
            "routeId": "41890",
            "stopId": "150435",
            "position": "1",
            "name": "NYU Lagone Hospital",
            "latitude": 40.6907073,
            "longitude": -73.996395627,
            "id": "150435",
            "userId": "2396",
            "radius": 50,
            "routeName": "Cobble Hill",
            "routeShortname": "Brooklyn",
            "routeGroupId": 0
        },
        "ID150436": {
            "routeId": "41890",
            "stopId": "150436",
            "position": "2",
            "name": "Bergen Street Station",
            "latitude": 40.687059323,
            "longitude": -73.99016694,
            "id": "150436",
            "userId": "2396",
            "radius": 50,
            "routeName": "Cobble Hill",
            "routeShortname": "Brooklyn",
            "routeGroupId": 0
        },
        "ID150437": {
            "routeId": "41890",
            "stopId": "150437",
            "position": "3",
            "name": "Borough Hall Station",
            "latitude": 40.692540722,
            "longitude": -73.990435335,
            "id": "150437",
            "userId": "2396",
            "radius": 50,
            "routeName": "Cobble Hill",
            "routeShortname": "Brooklyn",
            "routeGroupId": 0
        },
        "ID150438": {
            "routeId": "41890",
            "stopId": "150438",
            "position": "4",
            "name": "Icon Parking Garage",
            "latitude": 40.69112,
            "longitude": -73.9899,
            "id": "150438",
            "userId": "2396",
            "radius": 50,
            "routeName": "Cobble Hill",
            "routeShortname": "Brooklyn",
            "routeGroupId": 0
        },
        "ID13138": {
            "routeId": "45769",
            "stopId": "13138",
            "position": "1",
            "name": "E River Term",
            "latitude": 40.743865,
            "longitude": -73.970701,
            "id": "13138",
            "userId": "1007",
            "radius": 250,
            "routeName": "Ferry Route",
            "routeShortname": "",
            "routeGroupId": 0
        },
        "ID13139": {
            "routeId": "45769",
            "stopId": "13139",
            "position": "2",
            "name": "Brooklyn Term",
            "latitude": 40.646526,
            "longitude": -74.026587,
            "id": "13139",
            "userId": "1007",
            "radius": 250,
            "routeName": "Ferry Route",
            "routeShortname": "",
            "routeGroupId": 0
        },
        "ID6545": {
            "routeId": "59834",
            "stopId": "6545",
            "position": "16",
            "name": "715 Broadway",
            "latitude": 40.729077,
            "longitude": -73.993748,
            "id": "6545",
            "userId": "1007",
            "radius": 85,
            "routeName": "Route W",
            "routeShortname": "W",
            "routeGroupId": 0
        },
        "ID6564": {
            "routeId": "59834",
            "stopId": "6564",
            "position": "6",
            "name": "14th St At Irving Place EB",
            "latitude": 40.734208156,
            "longitude": -73.989395416,
            "id": "6564",
            "userId": "1007",
            "radius": 69,
            "routeName": "Route W",
            "routeShortname": "W",
            "routeGroupId": 0
        },
        "ID6580": {
            "routeId": "59834",
            "stopId": "6580",
            "position": "7",
            "name": "14th Street At Third Avenue",
            "latitude": 40.733102,
            "longitude": -73.986791,
            "id": "6580",
            "userId": "1007",
            "radius": 75,
            "routeName": "Route W",
            "routeShortname": "W",
            "routeGroupId": 0
        },
        "ID6566": {
            "routeId": "59834",
            "stopId": "6566",
            "position": "8",
            "name": "First Avenue At 17th Street",
            "latitude": 40.73313,
            "longitude": -73.981222,
            "id": "6566",
            "userId": "1007",
            "radius": 75,
            "routeName": "Route W",
            "routeShortname": "W",
            "routeGroupId": 0
        },
        "ID6567": {
            "routeId": "59834",
            "stopId": "6567",
            "position": "9",
            "name": "First Avenue At 24th Street",
            "latitude": 40.737082,
            "longitude": -73.978343,
            "id": "6567",
            "userId": "1007",
            "radius": 75,
            "routeName": "Route W",
            "routeShortname": "W",
            "routeGroupId": 0
        },
        "ID6568": {
            "routeId": "59834",
            "stopId": "6568",
            "position": "10",
            "name": "First Avenue At 26th Street",
            "latitude": 40.738911,
            "longitude": -73.977014,
            "id": "6568",
            "userId": "1007",
            "radius": 75,
            "routeName": "Route W",
            "routeShortname": "W",
            "routeGroupId": 0
        },
        "ID13110": {
            "routeId": "59666",
            "stopId": "13110",
            "position": "7",
            "name": "NYU Langone Health",
            "latitude": 40.741865,
            "longitude": -73.974879,
            "id": "13110",
            "userId": "1007",
            "radius": 75,
            "routeName": "Route E",
            "routeShortname": "E",
            "routeGroupId": 0
        },
        "ID6570": {
            "routeId": "59834",
            "stopId": "6570",
            "position": "12",
            "name": "Lexington Avenue At 31st Street",
            "latitude": 40.744396,
            "longitude": -73.981222,
            "id": "6570",
            "userId": "1007",
            "radius": 75,
            "routeName": "Route W",
            "routeShortname": "W",
            "routeGroupId": 0
        },
        "ID6571": {
            "routeId": "59834",
            "stopId": "6571",
            "position": "13",
            "name": "Gramercy Green",
            "latitude": 40.739329,
            "longitude": -73.982831,
            "id": "6571",
            "userId": "1007",
            "radius": 75,
            "routeName": "Route W",
            "routeShortname": "W",
            "routeGroupId": 0
        },
        "ID13118": {
            "routeId": "59832",
            "stopId": "13118",
            "position": "9",
            "name": "Third Avenue At 17th Street S",
            "latitude": 40.735018,
            "longitude": -73.985978,
            "id": "13118",
            "userId": "1007",
            "radius": 75,
            "routeName": "Route F",
            "routeShortname": "F",
            "routeGroupId": 0
        },
        "ID6573": {
            "routeId": "59834",
            "stopId": "6573",
            "position": "15",
            "name": "14th St At Irving Place WB",
            "latitude": 40.734116,
            "longitude": -73.989034,
            "id": "6573",
            "userId": "1007",
            "radius": 75,
            "routeName": "Route W",
            "routeShortname": "W",
            "routeGroupId": 0
        },
        "ID6556": {
            "routeId": "59829",
            "stopId": "6556",
            "position": "1",
            "name": "20th Street At Loop Exit",
            "latitude": 40.734085,
            "longitude": -73.977781,
            "id": "6556",
            "userId": "1007",
            "radius": 75,
            "routeName": "Route C",
            "routeShortname": "C",
            "routeGroupId": 0
        },
        "ID6557": {
            "routeId": "59829",
            "stopId": "6557",
            "position": "2",
            "name": "Avenue C At 18th Street",
            "latitude": 40.731242,
            "longitude": -73.974143,
            "id": "6557",
            "userId": "1007",
            "radius": 75,
            "routeName": "Route C",
            "routeShortname": "C",
            "routeGroupId": 0
        },
        "ID6558": {
            "routeId": "59829",
            "stopId": "6558",
            "position": "3",
            "name": "Avenue C At 16th Street",
            "latitude": 40.729895,
            "longitude": -73.974684,
            "id": "6558",
            "userId": "1007",
            "radius": 75,
            "routeName": "Route C",
            "routeShortname": "C",
            "routeGroupId": 0
        },
        "ID6559": {
            "routeId": "59829",
            "stopId": "6559",
            "position": "4",
            "name": "Avenue C At 14th Street",
            "latitude": 40.72883,
            "longitude": -73.975474,
            "id": "6559",
            "userId": "1007",
            "radius": 75,
            "routeName": "Route C",
            "routeShortname": "C",
            "routeGroupId": 0
        },
        "ID6560": {
            "routeId": "59829",
            "stopId": "6560",
            "position": "5",
            "name": "14th Street At Avenue B",
            "latitude": 40.729371,
            "longitude": -73.977786,
            "id": "6560",
            "userId": "1007",
            "radius": 75,
            "routeName": "Route C",
            "routeShortname": "C",
            "routeGroupId": 0
        },
        "ID6561": {
            "routeId": "59829",
            "stopId": "6561",
            "position": "6",
            "name": "14th Street At Avenue A",
            "latitude": 40.730387,
            "longitude": -73.980194,
            "id": "6561",
            "userId": "1007",
            "radius": 75,
            "routeName": "Route C",
            "routeShortname": "C",
            "routeGroupId": 0
        },
        "ID6562": {
            "routeId": "59829",
            "stopId": "6562",
            "position": "7",
            "name": "14th Street At 1st Avenue",
            "latitude": 40.731251,
            "longitude": -73.982309,
            "id": "6562",
            "userId": "1007",
            "radius": 75,
            "routeName": "Route C",
            "routeShortname": "C",
            "routeGroupId": 0
        },
        "ID6563": {
            "routeId": "59832",
            "stopId": "6563",
            "position": "10",
            "name": "Third Avenue At 13th Street",
            "latitude": 40.733157,
            "longitude": -73.987323,
            "id": "6563",
            "userId": "1007",
            "radius": 75,
            "routeName": "Route F",
            "routeShortname": "F",
            "routeGroupId": 0
        },
        "ID6550": {
            "routeId": "59834",
            "stopId": "6550",
            "position": "2",
            "name": "Broadway & Broome St.",
            "latitude": 40.721635,
            "longitude": -74.000049,
            "id": "6550",
            "userId": "1007",
            "radius": 75,
            "routeName": "Route W",
            "routeShortname": "W",
            "routeGroupId": 0
        },
        "ID6551": {
            "routeId": "59834",
            "stopId": "6551",
            "position": "3",
            "name": "80 Lafayette Street",
            "latitude": 40.717122,
            "longitude": -74.001777,
            "id": "6551",
            "userId": "1007",
            "radius": 127,
            "routeName": "Route W",
            "routeShortname": "W",
            "routeGroupId": 0
        },
        "ID6547": {
            "routeId": "59830",
            "stopId": "6547",
            "position": "6",
            "name": "Metro Tech Way",
            "latitude": 40.693106,
            "longitude": -73.985498,
            "id": "6547",
            "userId": "1007",
            "radius": 75,
            "routeName": "Route A",
            "routeShortname": "A",
            "routeGroupId": 0
        },
        "ID8801": {
            "routeId": "59830",
            "stopId": "8801",
            "position": "9",
            "name": "Cadman Plaza & Clark Street",
            "latitude": 40.696808,
            "longitude": -73.991254,
            "id": "8801",
            "userId": "1007",
            "radius": 120,
            "routeName": "Route A",
            "routeShortname": "A",
            "routeGroupId": 0
        },
        "ID9296": {
            "routeId": "59834",
            "stopId": "9296",
            "position": "4",
            "name": "Cleveland Pl & Spring St",
            "latitude": 40.722163,
            "longitude": -73.997112,
            "id": "9296",
            "userId": "1007",
            "radius": 50,
            "routeName": "Route W",
            "routeShortname": "W",
            "routeGroupId": 0
        },
        "ID6553": {
            "routeId": "59834",
            "stopId": "6553",
            "position": "5",
            "name": "Lafayette & E. 4th St",
            "latitude": 40.727934,
            "longitude": -73.993036,
            "id": "6553",
            "userId": "1007",
            "radius": 75,
            "routeName": "Route W",
            "routeShortname": "W",
            "routeGroupId": 0
        },
        "ID9298": {
            "routeId": "59832",
            "stopId": "9298",
            "position": "2",
            "name": "Third Avenue At 11th Street (NB)",
            "latitude": 40.731519,
            "longitude": -73.988345,
            "id": "9298",
            "userId": "1007",
            "radius": 50,
            "routeName": "Route F",
            "routeShortname": "F",
            "routeGroupId": 0
        },
        "ID6574": {
            "routeId": "59832",
            "stopId": "6574",
            "position": "3",
            "name": "Third Avenue At 14th Street",
            "latitude": 40.733588,
            "longitude": -73.986889,
            "id": "6574",
            "userId": "1007",
            "radius": 75,
            "routeName": "Route F",
            "routeShortname": "F",
            "routeGroupId": 0
        },
        "ID6572": {
            "routeId": "59834",
            "stopId": "6572",
            "position": "14",
            "name": "Third Avenue At 17th Street N",
            "latitude": 40.735426,
            "longitude": -73.985619,
            "id": "6572",
            "userId": "1007",
            "radius": 75,
            "routeName": "Route W",
            "routeShortname": "W",
            "routeGroupId": 0
        },
        "ID6575": {
            "routeId": "59832",
            "stopId": "6575",
            "position": "5",
            "name": "Opposite Gramercy Green",
            "latitude": 40.739069,
            "longitude": -73.982951,
            "id": "6575",
            "userId": "1007",
            "radius": 75,
            "routeName": "Route F",
            "routeShortname": "F",
            "routeGroupId": 0
        },
        "ID6576": {
            "routeId": "59832",
            "stopId": "6576",
            "position": "6",
            "name": "Third Avenue At 30th Street",
            "latitude": 40.743361,
            "longitude": -73.979802,
            "id": "6576",
            "userId": "1007",
            "radius": 75,
            "routeName": "Route F",
            "routeShortname": "F",
            "routeGroupId": 0
        },
        "ID9299": {
            "routeId": "59832",
            "stopId": "9299",
            "position": "11",
            "name": "Third Avenue At 11th Street (SB)",
            "latitude": 40.731233,
            "longitude": -73.988729,
            "id": "9299",
            "userId": "1007",
            "radius": 50,
            "routeName": "Route F",
            "routeShortname": "F",
            "routeGroupId": 0
        },
        "ID6577": {
            "routeId": "59833",
            "stopId": "6577",
            "position": "2",
            "name": "Morton & Greenwich",
            "latitude": 40.731424,
            "longitude": -74.007932,
            "id": "6577",
            "userId": "1007",
            "radius": 73,
            "routeName": "Route G",
            "routeShortname": "G",
            "routeGroupId": 0
        },
        "ID6569": {
            "routeId": "59834",
            "stopId": "6569",
            "position": "11",
            "name": "NYU Langone Med Ctr",
            "latitude": 40.646901,
            "longitude": -74.020897,
            "id": "6569",
            "userId": "1007",
            "radius": 75,
            "routeName": "Route W",
            "routeShortname": "W",
            "routeGroupId": 0
        },
        "ID13109": {
            "routeId": "59835",
            "stopId": "13109",
            "position": "8",
            "name": "Hospital 150 E55th st.",
            "latitude": 40.646901,
            "longitude": -74.020897,
            "id": "13109",
            "userId": "1007",
            "radius": 50,
            "routeName": "Brooklyn NYU Langone Shuttle",
            "routeShortname": "",
            "routeGroupId": 0
        },
        "ID13111": {
            "routeId": "59835",
            "stopId": "13111",
            "position": "2",
            "name": "Ferry 58th St.& Pier",
            "latitude": 40.646637,
            "longitude": -74.025521,
            "id": "13111",
            "userId": "1007",
            "radius": 50,
            "routeName": "Brooklyn NYU Langone Shuttle",
            "routeShortname": "",
            "routeGroupId": 0
        },
        "ID7496": {
            "routeId": "59835",
            "stopId": "7496",
            "position": "3",
            "name": "Admin Bldng 58th /2nd Ave EB",
            "latitude": 40.645294,
            "longitude": -74.022786,
            "id": "7496",
            "userId": "1007",
            "radius": 75,
            "routeName": "Brooklyn NYU Langone Shuttle",
            "routeShortname": "",
            "routeGroupId": 0
        },
        "ID7494": {
            "routeId": "59835",
            "stopId": "7494",
            "position": "5",
            "name": "Subway 4th Ave 53rd St.",
            "latitude": 40.644915,
            "longitude": -74.014311,
            "id": "7494",
            "userId": "1007",
            "radius": 75,
            "routeName": "Brooklyn NYU Langone Shuttle",
            "routeShortname": "",
            "routeGroupId": 0
        },
        "ID7495": {
            "routeId": "59835",
            "stopId": "7495",
            "position": "6",
            "name": "Subway 4th Ave 59th St.",
            "latitude": 40.641215,
            "longitude": -74.018071,
            "id": "7495",
            "userId": "1007",
            "radius": 75,
            "routeName": "Brooklyn NYU Langone Shuttle",
            "routeShortname": "",
            "routeGroupId": 0
        },
        "ID13117": {
            "routeId": "59835",
            "stopId": "13117",
            "position": "7",
            "name": "Admin Bldng 58th /2nd Ave WB",
            "latitude": 40.645164,
            "longitude": -74.02262,
            "id": "13117",
            "userId": "1007",
            "radius": 50,
            "routeName": "Brooklyn NYU Langone Shuttle",
            "routeShortname": "",
            "routeGroupId": 0
        },
        "ID13131": {
            "routeId": "59836",
            "stopId": "13131",
            "position": "1",
            "name": "8th Ave. & 41st St.",
            "latitude": 40.756185,
            "longitude": -73.990486,
            "id": "13131",
            "userId": "1007",
            "radius": 50,
            "routeName": "Manhattan Commuter Shuttle Eastbound",
            "routeShortname": "",
            "routeGroupId": 0
        },
        "ID13121": {
            "routeId": "59836",
            "stopId": "13121",
            "position": "2",
            "name": "34th St. & Penn Station EB",
            "latitude": 40.751045,
            "longitude": -73.990847,
            "id": "13121",
            "userId": "1007",
            "radius": 50,
            "routeName": "Manhattan Commuter Shuttle Eastbound",
            "routeShortname": "",
            "routeGroupId": 0
        },
        "ID13122": {
            "routeId": "59836",
            "stopId": "13122",
            "position": "3",
            "name": "Herald Square 34th St. / 6th Ave EB",
            "latitude": 40.749454,
            "longitude": -73.987258,
            "id": "13122",
            "userId": "1007",
            "radius": 50,
            "routeName": "Manhattan Commuter Shuttle Eastbound",
            "routeShortname": "",
            "routeGroupId": 0
        },
        "ID13123": {
            "routeId": "59837",
            "stopId": "13123",
            "position": "2",
            "name": "M 34th St/Park Ave EB",
            "latitude": 40.746832,
            "longitude": -73.980962,
            "id": "13123",
            "userId": "1007",
            "radius": 50,
            "routeName": "Manhattan Commuter Shuttle Westbound",
            "routeShortname": "",
            "routeGroupId": 0
        },
        "ID13125": {
            "routeId": "59836",
            "stopId": "13125",
            "position": "5",
            "name": "34th St. & 2nd Ave.",
            "latitude": 40.744805,
            "longitude": -73.976156,
            "id": "13125",
            "userId": "1007",
            "radius": 50,
            "routeName": "Manhattan Commuter Shuttle Eastbound",
            "routeShortname": "",
            "routeGroupId": 0
        },
        "ID7473": {
            "routeId": "59838",
            "stopId": "7473",
            "position": "5",
            "name": "Man Lobby Entrance 550 1st Ave",
            "latitude": 40.742886,
            "longitude": -73.974172,
            "id": "7473",
            "userId": "1007",
            "radius": 42,
            "routeName": "Manhattan Park Ave",
            "routeShortname": "Manhattan Park Ave.",
            "routeGroupId": 0
        },
        "ID70677": {
            "routeId": "59837",
            "stopId": "70677",
            "position": "3",
            "name": "ACC 240 E. 38th Street WB",
            "latitude": 40.747569,
            "longitude": -73.974733,
            "id": "70677",
            "userId": "1007",
            "radius": 50,
            "routeName": "Manhattan Commuter Shuttle Westbound",
            "routeShortname": "",
            "routeGroupId": 0
        },
        "ID70678": {
            "routeId": "59837",
            "stopId": "70678",
            "position": "4",
            "name": "LOC 333 E. 38th Street",
            "latitude": 40.746532,
            "longitude": -73.972277,
            "id": "70678",
            "userId": "1007",
            "radius": 50,
            "routeName": "Manhattan Commuter Shuttle Westbound",
            "routeShortname": "",
            "routeGroupId": 0
        },
        "ID70679": {
            "routeId": "59837",
            "stopId": "70679",
            "position": "5",
            "name": "Grand Central Station 42nd St/Park Avenue",
            "latitude": 40.752404,
            "longitude": -73.97835,
            "id": "70679",
            "userId": "1007",
            "radius": 50,
            "routeName": "Manhattan Commuter Shuttle Westbound",
            "routeShortname": "",
            "routeGroupId": 0
        },
        "ID13129": {
            "routeId": "59837",
            "stopId": "13129",
            "position": "9",
            "name": "Herald Square 34th St. / 6th Ave. WB",
            "latitude": 40.750004,
            "longitude": -73.988156,
            "id": "13129",
            "userId": "1007",
            "radius": 50,
            "routeName": "Manhattan Commuter Shuttle Westbound",
            "routeShortname": "",
            "routeGroupId": 0
        },
        "ID70681": {
            "routeId": "59837",
            "stopId": "70681",
            "position": "10",
            "name": "34th Street & Penn Station WB",
            "latitude": 40.751287,
            "longitude": -73.991189,
            "id": "70681",
            "userId": "1007",
            "radius": 50,
            "routeName": "Manhattan Commuter Shuttle Westbound",
            "routeShortname": "",
            "routeGroupId": 0
        },
        "ID70676": {
            "routeId": "59837",
            "stopId": "70676",
            "position": "11",
            "name": "Port Authority 8th Ave",
            "latitude": 40.756185,
            "longitude": -73.990486,
            "id": "70676",
            "userId": "1007",
            "radius": 50,
            "routeName": "Manhattan Commuter Shuttle Westbound",
            "routeShortname": "",
            "routeGroupId": 0
        },
        "ID7474": {
            "routeId": "59838",
            "stopId": "7474",
            "position": "2",
            "name": "Admin 360 Park Avenue",
            "latitude": 40.741634,
            "longitude": -73.985225,
            "id": "7474",
            "userId": "1007",
            "radius": 75,
            "routeName": "Manhattan Park Ave",
            "routeShortname": "Manhattan Park Ave.",
            "routeGroupId": 0
        },
        "ID7475": {
            "routeId": "59838",
            "stopId": "7475",
            "position": "3",
            "name": "Admin One Park Avenue",
            "latitude": 40.7461152,
            "longitude": -73.981906,
            "id": "7475",
            "userId": "1007",
            "radius": 75,
            "routeName": "Manhattan Park Ave",
            "routeShortname": "Manhattan Park Ave.",
            "routeGroupId": 0
        },
        "ID7470": {
            "routeId": "59838",
            "stopId": "7470",
            "position": "4",
            "name": "Permutter Cancer Center 160 E 34th St",
            "latitude": 40.745887,
            "longitude": -73.978563,
            "id": "7470",
            "userId": "1007",
            "radius": 75,
            "routeName": "Manhattan Park Ave",
            "routeShortname": "Manhattan Park Ave.",
            "routeGroupId": 0
        }
    },
    "routes": {
        "41890": [
            "Cobble Hill",
            "#2ca02c",
            0,
            [
                "1",
                "150435",
                0
            ],
            [
                "2",
                "150436",
                0
            ],
            [
                "3",
                "150437",
                0
            ],
            [
                "4",
                "150438",
                0
            ]
        ],
        "45769": [
            "Ferry Route",
            "#e6550d",
            0,
            [
                "1",
                "13138",
                0
            ],
            [
                "2",
                "13139",
                0
            ]
        ],
        "59666": [
            "Route E",
            "#CD5C5C",
            0,
            [
                "1",
                "6545",
                0
            ],
            [
                "2",
                "6564",
                0
            ],
            [
                "3",
                "6580",
                0
            ],
            [
                "4",
                "6566",
                0
            ],
            [
                "5",
                "6567",
                0
            ],
            [
                "6",
                "6568",
                0
            ],
            [
                "7",
                "13110",
                0
            ],
            [
                "8",
                "6570",
                0
            ],
            [
                "9",
                "6571",
                0
            ],
            [
                "10",
                "13118",
                0
            ],
            [
                "11",
                "6573",
                0
            ],
            [
                "12",
                "6545",
                1
            ]
        ],
        "59829": [
            "Route C",
            "#4169E1",
            0,
            [
                "1",
                "6556",
                0
            ],
            [
                "2",
                "6557",
                0
            ],
            [
                "3",
                "6558",
                0
            ],
            [
                "4",
                "6559",
                0
            ],
            [
                "5",
                "6560",
                0
            ],
            [
                "6",
                "6561",
                0
            ],
            [
                "7",
                "6562",
                0
            ],
            [
                "8",
                "6563",
                0
            ],
            [
                "9",
                "6545",
                0
            ]
        ],
        "59830": [
            "Route A",
            "#f7b6d2",
            0,
            [
                "1",
                "6545",
                0
            ],
            [
                "2",
                "6550",
                0
            ],
            [
                "4",
                "6551",
                0
            ],
            [
                "5",
                "6547",
                0
            ],
            [
                "6",
                "6547",
                0
            ],
            [
                "9",
                "8801",
                0
            ],
            [
                "11",
                "9296",
                0
            ],
            [
                "12",
                "6545",
                0
            ]
        ],
        "59831": [
            "Route B",
            "#9370DB",
            0,
            [
                "1",
                "6545",
                0
            ],
            [
                "2",
                "6550",
                0
            ],
            [
                "4",
                "6551",
                0
            ],
            [
                "5",
                "9296",
                0
            ],
            [
                "6",
                "6553",
                0
            ],
            [
                "7",
                "6545",
                1
            ]
        ],
        "59832": [
            "Route F",
            "#3CB371",
            0,
            [
                "1",
                "6545",
                0
            ],
            [
                "2",
                "9298",
                0
            ],
            [
                "3",
                "6574",
                0
            ],
            [
                "4",
                "6572",
                0
            ],
            [
                "5",
                "6575",
                0
            ],
            [
                "6",
                "6576",
                0
            ],
            [
                "7",
                "6570",
                0
            ],
            [
                "8",
                "6571",
                0
            ],
            [
                "9",
                "13118",
                0
            ],
            [
                "10",
                "6563",
                0
            ],
            [
                "11",
                "9299",
                0
            ],
            [
                "12",
                "6545",
                1
            ]
        ],
        "59833": [
            "Route G",
            "#87CEFA",
            0,
            [
                "1",
                "6545",
                0
            ],
            [
                "2",
                "6577",
                0
            ],
            [
                "3",
                "6545",
                0
            ]
        ],
        "59834": [
            "Route W",
            "#FFA500",
            1,
            [
                "1",
                "6545",
                0
            ],
            [
                "2",
                "6550",
                0
            ],
            [
                "3",
                "6551",
                0
            ],
            [
                "4",
                "9296",
                0
            ],
            [
                "5",
                "6553",
                0
            ],
            [
                "6",
                "6564",
                0
            ],
            [
                "7",
                "6580",
                0
            ],
            [
                "8",
                "6566",
                0
            ],
            [
                "9",
                "6567",
                0
            ],
            [
                "10",
                "6568",
                0
            ],
            [
                "11",
                "6569",
                0
            ],
            [
                "12",
                "6570",
                0
            ],
            [
                "13",
                "6571",
                0
            ],
            [
                "14",
                "6572",
                0
            ],
            [
                "15",
                "6573",
                0
            ],
            [
                "16",
                "6545",
                1
            ]
        ],
        "59835": [
            "Brooklyn NYU Langone Shuttle",
            "#bcbd22",
            0,
            [
                "1",
                "13109",
                0
            ],
            [
                "2",
                "13111",
                0
            ],
            [
                "3",
                "7496",
                0
            ],
            [
                "4",
                "13109",
                0
            ],
            [
                "5",
                "7494",
                0
            ],
            [
                "6",
                "7495",
                0
            ],
            [
                "7",
                "13117",
                0
            ],
            [
                "8",
                "13109",
                0
            ]
        ],
        "59836": [
            "Manhattan Commuter Shuttle Eastbound",
            "#637939",
            0,
            [
                "1",
                "13131",
                0
            ],
            [
                "2",
                "13121",
                0
            ],
            [
                "3",
                "13122",
                0
            ],
            [
                "4",
                "13123",
                0
            ],
            [
                "5",
                "13125",
                0
            ],
            [
                "6",
                "7473",
                0
            ]
        ],
        "59837": [
            "Manhattan Commuter Shuttle Westbound",
            "#9c9ede",
            0,
            [
                "1",
                "7473",
                0
            ],
            [
                "2",
                "13123",
                0
            ],
            [
                "3",
                "70677",
                0
            ],
            [
                "4",
                "70678",
                0
            ],
            [
                "5",
                "70679",
                0
            ],
            [
                "9",
                "13129",
                0
            ],
            [
                "10",
                "70681",
                0
            ],
            [
                "11",
                "70676",
                0
            ]
        ],
        "59838": [
            "Manhattan Park Ave",
            "#843c39",
            0,
            [
                "1",
                "7473",
                0
            ],
            [
                "2",
                "7474",
                0
            ],
            [
                "3",
                "7475",
                0
            ],
            [
                "4",
                "7470",
                0
            ],
            [
                "5",
                "7473",
                0
            ]
        ]
    },
    "routePoints": {
        "41890": [
            [
                {
                    "lat": "40.690667000",
                    "lng": "-73.996277000"
                },
                {
                    "lat": "40.690158000",
                    "lng": "-73.996522000"
                },
                {
                    "lat": "40.690104000",
                    "lng": "-73.996548000"
                },
                {
                    "lat": "40.690055000",
                    "lng": "-73.996572000"
                },
                {
                    "lat": "40.689724000",
                    "lng": "-73.996733000"
                },
                {
                    "lat": "40.689504000",
                    "lng": "-73.996839000"
                },
                {
                    "lat": "40.689433000",
                    "lng": "-73.996874000"
                },
                {
                    "lat": "40.689374000",
                    "lng": "-73.996902000"
                },
                {
                    "lat": "40.688807000",
                    "lng": "-73.997175000"
                },
                {
                    "lat": "40.688749000",
                    "lng": "-73.997203000"
                },
                {
                    "lat": "40.688729000",
                    "lng": "-73.997130000"
                },
                {
                    "lat": "40.688480000",
                    "lng": "-73.996243000"
                },
                {
                    "lat": "40.688458000",
                    "lng": "-73.996163000"
                },
                {
                    "lat": "40.688256000",
                    "lng": "-73.995431000"
                },
                {
                    "lat": "40.688247000",
                    "lng": "-73.995400000"
                },
                {
                    "lat": "40.688227000",
                    "lng": "-73.995326000"
                },
                {
                    "lat": "40.688208000",
                    "lng": "-73.995256000"
                },
                {
                    "lat": "40.687753000",
                    "lng": "-73.993608000"
                },
                {
                    "lat": "40.687707000",
                    "lng": "-73.993441000"
                },
                {
                    "lat": "40.687678000",
                    "lng": "-73.993333000"
                },
                {
                    "lat": "40.687386000",
                    "lng": "-73.993474000"
                },
                {
                    "lat": "40.687126000",
                    "lng": "-73.993600000"
                },
                {
                    "lat": "40.687121000",
                    "lng": "-73.993587000"
                },
                {
                    "lat": "40.687093000",
                    "lng": "-73.993515000"
                },
                {
                    "lat": "40.686600000",
                    "lng": "-73.992241000"
                },
                {
                    "lat": "40.686116000",
                    "lng": "-73.990990000"
                },
                {
                    "lat": "40.686082000",
                    "lng": "-73.990903000"
                },
                {
                    "lat": "40.687085000",
                    "lng": "-73.990220000"
                },
                {
                    "lat": "40.687323000",
                    "lng": "-73.990058000"
                },
                {
                    "lat": "40.687367000",
                    "lng": "-73.990027000"
                },
                {
                    "lat": "40.687423000",
                    "lng": "-73.989989000"
                },
                {
                    "lat": "40.687815000",
                    "lng": "-73.989723000"
                },
                {
                    "lat": "40.687937000",
                    "lng": "-73.989640000"
                },
                {
                    "lat": "40.687990000",
                    "lng": "-73.989609000"
                },
                {
                    "lat": "40.688051000",
                    "lng": "-73.989574000"
                },
                {
                    "lat": "40.688321000",
                    "lng": "-73.989396000"
                },
                {
                    "lat": "40.688533000",
                    "lng": "-73.989256000"
                },
                {
                    "lat": "40.688615000",
                    "lng": "-73.989168000"
                },
                {
                    "lat": "40.688650000",
                    "lng": "-73.989264000"
                },
                {
                    "lat": "40.688841000",
                    "lng": "-73.989796000"
                },
                {
                    "lat": "40.688893000",
                    "lng": "-73.989940000"
                },
                {
                    "lat": "40.689025000",
                    "lng": "-73.990337000"
                },
                {
                    "lat": "40.689048000",
                    "lng": "-73.990402000"
                },
                {
                    "lat": "40.689074000",
                    "lng": "-73.990481000"
                },
                {
                    "lat": "40.689166000",
                    "lng": "-73.990421000"
                },
                {
                    "lat": "40.689594000",
                    "lng": "-73.990137000"
                },
                {
                    "lat": "40.689644000",
                    "lng": "-73.990103000"
                },
                {
                    "lat": "40.689700000",
                    "lng": "-73.990066000"
                },
                {
                    "lat": "40.689754000",
                    "lng": "-73.990029000"
                },
                {
                    "lat": "40.689875000",
                    "lng": "-73.989953000"
                },
                {
                    "lat": "40.690029000",
                    "lng": "-73.989855000"
                },
                {
                    "lat": "40.690284000",
                    "lng": "-73.989699000"
                },
                {
                    "lat": "40.690337000",
                    "lng": "-73.989659000"
                },
                {
                    "lat": "40.690405000",
                    "lng": "-73.989607000"
                },
                {
                    "lat": "40.690610000",
                    "lng": "-73.989472000"
                },
                {
                    "lat": "40.690644000",
                    "lng": "-73.989450000"
                },
                {
                    "lat": "40.690788000",
                    "lng": "-73.989357000"
                },
                {
                    "lat": "40.690802000",
                    "lng": "-73.989348000"
                },
                {
                    "lat": "40.690898000",
                    "lng": "-73.989286000"
                },
                {
                    "lat": "40.690945000",
                    "lng": "-73.989262000"
                },
                {
                    "lat": "40.690986000",
                    "lng": "-73.989243000"
                },
                {
                    "lat": "40.690996000",
                    "lng": "-73.989238000"
                },
                {
                    "lat": "40.691030000",
                    "lng": "-73.989223000"
                },
                {
                    "lat": "40.691078000",
                    "lng": "-73.989204000"
                },
                {
                    "lat": "40.691099000",
                    "lng": "-73.989199000"
                },
                {
                    "lat": "40.691149000",
                    "lng": "-73.989185000"
                },
                {
                    "lat": "40.691259000",
                    "lng": "-73.989157000"
                },
                {
                    "lat": "40.691361000",
                    "lng": "-73.989133000"
                },
                {
                    "lat": "40.691548000",
                    "lng": "-73.989096000"
                },
                {
                    "lat": "40.691816000",
                    "lng": "-73.989043000"
                },
                {
                    "lat": "40.692020000",
                    "lng": "-73.988975000"
                },
                {
                    "lat": "40.692095000",
                    "lng": "-73.988946000"
                },
                {
                    "lat": "40.692171000",
                    "lng": "-73.989130000"
                },
                {
                    "lat": "40.692208000",
                    "lng": "-73.989232000"
                },
                {
                    "lat": "40.692287000",
                    "lng": "-73.989426000"
                },
                {
                    "lat": "40.692310000",
                    "lng": "-73.989489000"
                },
                {
                    "lat": "40.692326000",
                    "lng": "-73.989546000"
                },
                {
                    "lat": "40.692341000",
                    "lng": "-73.989611000"
                },
                {
                    "lat": "40.692352000",
                    "lng": "-73.989667000"
                },
                {
                    "lat": "40.692356000",
                    "lng": "-73.989688000"
                },
                {
                    "lat": "40.692371000",
                    "lng": "-73.989783000"
                },
                {
                    "lat": "40.692390000",
                    "lng": "-73.989912000"
                },
                {
                    "lat": "40.692399000",
                    "lng": "-73.989974000"
                },
                {
                    "lat": "40.692474000",
                    "lng": "-73.990453000"
                },
                {
                    "lat": "40.692508000",
                    "lng": "-73.991007000"
                },
                {
                    "lat": "40.692476000",
                    "lng": "-73.991025000"
                },
                {
                    "lat": "40.692052000",
                    "lng": "-73.991228000"
                },
                {
                    "lat": "40.691953000",
                    "lng": "-73.991275000"
                },
                {
                    "lat": "40.691674000",
                    "lng": "-73.991411000"
                },
                {
                    "lat": "40.691597000",
                    "lng": "-73.991448000"
                },
                {
                    "lat": "40.691553000",
                    "lng": "-73.991364000"
                },
                {
                    "lat": "40.691367000",
                    "lng": "-73.990670000"
                },
                {
                    "lat": "40.691275000",
                    "lng": "-73.990327000"
                },
                {
                    "lat": "40.691161000",
                    "lng": "-73.989882000"
                },
                {
                    "lat": "40.691074000",
                    "lng": "-73.989544000"
                },
                {
                    "lat": "40.691039000",
                    "lng": "-73.989403000"
                },
                {
                    "lat": "40.690987000",
                    "lng": "-73.989428000"
                },
                {
                    "lat": "40.690944000",
                    "lng": "-73.989451000"
                },
                {
                    "lat": "40.690455000",
                    "lng": "-73.989784000"
                },
                {
                    "lat": "40.690390000",
                    "lng": "-73.989833000"
                },
                {
                    "lat": "40.690342000",
                    "lng": "-73.989868000"
                },
                {
                    "lat": "40.690099000",
                    "lng": "-73.990032000"
                },
                {
                    "lat": "40.689923000",
                    "lng": "-73.990138000"
                },
                {
                    "lat": "40.689910000",
                    "lng": "-73.990146000"
                },
                {
                    "lat": "40.689814000",
                    "lng": "-73.990203000"
                },
                {
                    "lat": "40.689758000",
                    "lng": "-73.990239000"
                },
                {
                    "lat": "40.689706000",
                    "lng": "-73.990274000"
                },
                {
                    "lat": "40.689667000",
                    "lng": "-73.990301000"
                },
                {
                    "lat": "40.689543000",
                    "lng": "-73.990387000"
                },
                {
                    "lat": "40.689278000",
                    "lng": "-73.990570000"
                },
                {
                    "lat": "40.689228000",
                    "lng": "-73.990603000"
                },
                {
                    "lat": "40.689140000",
                    "lng": "-73.990681000"
                },
                {
                    "lat": "40.689175000",
                    "lng": "-73.990786000"
                },
                {
                    "lat": "40.689196000",
                    "lng": "-73.990849000"
                },
                {
                    "lat": "40.689227000",
                    "lng": "-73.990942000"
                },
                {
                    "lat": "40.689395000",
                    "lng": "-73.991445000"
                },
                {
                    "lat": "40.689432000",
                    "lng": "-73.991559000"
                },
                {
                    "lat": "40.689597000",
                    "lng": "-73.992070000"
                },
                {
                    "lat": "40.689662000",
                    "lng": "-73.992283000"
                },
                {
                    "lat": "40.689688000",
                    "lng": "-73.992368000"
                },
                {
                    "lat": "40.689716000",
                    "lng": "-73.992467000"
                },
                {
                    "lat": "40.690006000",
                    "lng": "-73.993511000"
                },
                {
                    "lat": "40.690221000",
                    "lng": "-73.994287000"
                },
                {
                    "lat": "40.690240000",
                    "lng": "-73.994356000"
                },
                {
                    "lat": "40.690263000",
                    "lng": "-73.994437000"
                },
                {
                    "lat": "40.690742000",
                    "lng": "-73.996176000"
                },
                {
                    "lat": "40.690758000",
                    "lng": "-73.996233000"
                },
                {
                    "lat": "40.690667622",
                    "lng": "-73.996278255"
                }
            ]
        ],
        "45769": [
            [
                {
                    "lat": "40.743865000",
                    "lng": "-73.970701000"
                },
                {
                    "lat": "40.742732743",
                    "lng": "-73.970743429"
                },
                {
                    "lat": "40.736988393",
                    "lng": "-73.970045811"
                },
                {
                    "lat": "40.728702151",
                    "lng": "-73.968767863"
                },
                {
                    "lat": "40.720472871",
                    "lng": "-73.970649326"
                },
                {
                    "lat": "40.711982336",
                    "lng": "-73.973646588"
                },
                {
                    "lat": "40.709031820",
                    "lng": "-73.975888063"
                },
                {
                    "lat": "40.706992081",
                    "lng": "-73.979588659"
                },
                {
                    "lat": "40.705683327",
                    "lng": "-73.994921986"
                },
                {
                    "lat": "40.704290742",
                    "lng": "-73.996970302"
                },
                {
                    "lat": "40.698939672",
                    "lng": "-74.001643349"
                },
                {
                    "lat": "40.687307902",
                    "lng": "-74.009749623"
                },
                {
                    "lat": "40.679628502",
                    "lng": "-74.020817056"
                },
                {
                    "lat": "40.678685581",
                    "lng": "-74.021284400"
                },
                {
                    "lat": "40.664430719",
                    "lng": "-74.020588303"
                },
                {
                    "lat": "40.649552810",
                    "lng": "-74.029941485"
                },
                {
                    "lat": "40.648543888",
                    "lng": "-74.030067868"
                },
                {
                    "lat": "40.646526000",
                    "lng": "-74.026587000"
                },
                {
                    "lat": "40.647091304",
                    "lng": "-74.028010934"
                },
                {
                    "lat": "40.648346262",
                    "lng": "-74.030618903"
                },
                {
                    "lat": "40.649722620",
                    "lng": "-74.030613969"
                },
                {
                    "lat": "40.664707419",
                    "lng": "-74.021553898"
                },
                {
                    "lat": "40.678815765",
                    "lng": "-74.022099791"
                },
                {
                    "lat": "40.679815639",
                    "lng": "-74.021557346"
                },
                {
                    "lat": "40.687682131",
                    "lng": "-74.010200234"
                },
                {
                    "lat": "40.699110486",
                    "lng": "-74.002211977"
                },
                {
                    "lat": "40.704648609",
                    "lng": "-73.997399455"
                },
                {
                    "lat": "40.705978839",
                    "lng": "-73.995143844"
                },
                {
                    "lat": "40.707397780",
                    "lng": "-73.979800080"
                },
                {
                    "lat": "40.709473553",
                    "lng": "-73.976226613"
                },
                {
                    "lat": "40.712264917",
                    "lng": "-73.974155183"
                },
                {
                    "lat": "40.720619588",
                    "lng": "-73.971210896"
                },
                {
                    "lat": "40.728647995",
                    "lng": "-73.969296577"
                },
                {
                    "lat": "40.736935968",
                    "lng": "-73.970495205"
                },
                {
                    "lat": "40.742802869",
                    "lng": "-73.971040875"
                },
                {
                    "lat": "40.743865000",
                    "lng": "-73.970701000"
                }
            ]
        ],
        "59666": [
            [
                {
                    "lat": "40.729072000",
                    "lng": "-73.993694000"
                },
                {
                    "lat": "40.729009000",
                    "lng": "-73.993747000"
                },
                {
                    "lat": "40.728953000",
                    "lng": "-73.993794000"
                },
                {
                    "lat": "40.728469000",
                    "lng": "-73.994204000"
                },
                {
                    "lat": "40.728413000",
                    "lng": "-73.994252000"
                },
                {
                    "lat": "40.728370000",
                    "lng": "-73.994167000"
                },
                {
                    "lat": "40.728335000",
                    "lng": "-73.994095000"
                },
                {
                    "lat": "40.728152000",
                    "lng": "-73.993724000"
                },
                {
                    "lat": "40.727925000",
                    "lng": "-73.993264000"
                },
                {
                    "lat": "40.727867000",
                    "lng": "-73.993147000"
                },
                {
                    "lat": "40.727921000",
                    "lng": "-73.993101000"
                },
                {
                    "lat": "40.728535000",
                    "lng": "-73.992576000"
                },
                {
                    "lat": "40.729657000",
                    "lng": "-73.991616000"
                },
                {
                    "lat": "40.729784000",
                    "lng": "-73.991510000"
                },
                {
                    "lat": "40.729861000",
                    "lng": "-73.991420000"
                },
                {
                    "lat": "40.729996000",
                    "lng": "-73.991187000"
                },
                {
                    "lat": "40.730046000",
                    "lng": "-73.991121000"
                },
                {
                    "lat": "40.730100000",
                    "lng": "-73.991050000"
                },
                {
                    "lat": "40.730561000",
                    "lng": "-73.990687000"
                },
                {
                    "lat": "40.730615000",
                    "lng": "-73.990646000"
                },
                {
                    "lat": "40.730685000",
                    "lng": "-73.990604000"
                },
                {
                    "lat": "40.730771000",
                    "lng": "-73.990551000"
                },
                {
                    "lat": "40.731002000",
                    "lng": "-73.990410000"
                },
                {
                    "lat": "40.731212000",
                    "lng": "-73.990364000"
                },
                {
                    "lat": "40.731281000",
                    "lng": "-73.990351000"
                },
                {
                    "lat": "40.731338000",
                    "lng": "-73.990339000"
                },
                {
                    "lat": "40.731894000",
                    "lng": "-73.990218000"
                },
                {
                    "lat": "40.731964000",
                    "lng": "-73.990203000"
                },
                {
                    "lat": "40.732034000",
                    "lng": "-73.990188000"
                },
                {
                    "lat": "40.732689000",
                    "lng": "-73.990042000"
                },
                {
                    "lat": "40.732756000",
                    "lng": "-73.990027000"
                },
                {
                    "lat": "40.732818000",
                    "lng": "-73.990014000"
                },
                {
                    "lat": "40.732905000",
                    "lng": "-73.990001000"
                },
                {
                    "lat": "40.733404000",
                    "lng": "-73.989868000"
                },
                {
                    "lat": "40.733449000",
                    "lng": "-73.989858000"
                },
                {
                    "lat": "40.733523000",
                    "lng": "-73.989847000"
                },
                {
                    "lat": "40.733581000",
                    "lng": "-73.989844000"
                },
                {
                    "lat": "40.733592000",
                    "lng": "-73.989843000"
                },
                {
                    "lat": "40.733664000",
                    "lng": "-73.989839000"
                },
                {
                    "lat": "40.733808000",
                    "lng": "-73.989834000"
                },
                {
                    "lat": "40.733829000",
                    "lng": "-73.989833000"
                },
                {
                    "lat": "40.733919000",
                    "lng": "-73.989830000"
                },
                {
                    "lat": "40.733974000",
                    "lng": "-73.989831000"
                },
                {
                    "lat": "40.734028000",
                    "lng": "-73.989837000"
                },
                {
                    "lat": "40.734071000",
                    "lng": "-73.989842000"
                },
                {
                    "lat": "40.734096000",
                    "lng": "-73.989845000"
                },
                {
                    "lat": "40.734264000",
                    "lng": "-73.989865000"
                },
                {
                    "lat": "40.734312000",
                    "lng": "-73.989872000"
                },
                {
                    "lat": "40.734398000",
                    "lng": "-73.989885000"
                },
                {
                    "lat": "40.734428000",
                    "lng": "-73.989890000"
                },
                {
                    "lat": "40.734382000",
                    "lng": "-73.989770000"
                },
                {
                    "lat": "40.734319000",
                    "lng": "-73.989620000"
                },
                {
                    "lat": "40.734285000",
                    "lng": "-73.989540000"
                },
                {
                    "lat": "40.734031000",
                    "lng": "-73.988937000"
                },
                {
                    "lat": "40.734003000",
                    "lng": "-73.988870000"
                },
                {
                    "lat": "40.733964000",
                    "lng": "-73.988777000"
                },
                {
                    "lat": "40.733932000",
                    "lng": "-73.988699000"
                },
                {
                    "lat": "40.733795000",
                    "lng": "-73.988361000"
                },
                {
                    "lat": "40.733479000",
                    "lng": "-73.987615000"
                },
                {
                    "lat": "40.733353000",
                    "lng": "-73.987317000"
                },
                {
                    "lat": "40.733295000",
                    "lng": "-73.987180000"
                },
                {
                    "lat": "40.733241000",
                    "lng": "-73.987044000"
                },
                {
                    "lat": "40.733200000",
                    "lng": "-73.986947000"
                },
                {
                    "lat": "40.733081000",
                    "lng": "-73.986666000"
                },
                {
                    "lat": "40.732935000",
                    "lng": "-73.986319000"
                },
                {
                    "lat": "40.732630000",
                    "lng": "-73.985608000"
                },
                {
                    "lat": "40.732520000",
                    "lng": "-73.985349000"
                },
                {
                    "lat": "40.732481000",
                    "lng": "-73.985256000"
                },
                {
                    "lat": "40.732401000",
                    "lng": "-73.985069000"
                },
                {
                    "lat": "40.732353000",
                    "lng": "-73.984937000"
                },
                {
                    "lat": "40.732309000",
                    "lng": "-73.984811000"
                },
                {
                    "lat": "40.732204000",
                    "lng": "-73.984554000"
                },
                {
                    "lat": "40.732136000",
                    "lng": "-73.984388000"
                },
                {
                    "lat": "40.732101000",
                    "lng": "-73.984310000"
                },
                {
                    "lat": "40.732069000",
                    "lng": "-73.984254000"
                },
                {
                    "lat": "40.732008000",
                    "lng": "-73.984140000"
                },
                {
                    "lat": "40.731973000",
                    "lng": "-73.984070000"
                },
                {
                    "lat": "40.731945000",
                    "lng": "-73.984008000"
                },
                {
                    "lat": "40.731679000",
                    "lng": "-73.983372000"
                },
                {
                    "lat": "40.731586000",
                    "lng": "-73.983125000"
                },
                {
                    "lat": "40.731415000",
                    "lng": "-73.982714000"
                },
                {
                    "lat": "40.731357000",
                    "lng": "-73.982557000"
                },
                {
                    "lat": "40.731436000",
                    "lng": "-73.982498000"
                },
                {
                    "lat": "40.731494000",
                    "lng": "-73.982456000"
                },
                {
                    "lat": "40.731847000",
                    "lng": "-73.982196000"
                },
                {
                    "lat": "40.731903000",
                    "lng": "-73.982154000"
                },
                {
                    "lat": "40.731977000",
                    "lng": "-73.982099000"
                },
                {
                    "lat": "40.732029000",
                    "lng": "-73.982061000"
                },
                {
                    "lat": "40.732096000",
                    "lng": "-73.982012000"
                },
                {
                    "lat": "40.732327000",
                    "lng": "-73.981845000"
                },
                {
                    "lat": "40.732606000",
                    "lng": "-73.981642000"
                },
                {
                    "lat": "40.732664000",
                    "lng": "-73.981601000"
                },
                {
                    "lat": "40.732727000",
                    "lng": "-73.981552000"
                },
                {
                    "lat": "40.732851000",
                    "lng": "-73.981461000"
                },
                {
                    "lat": "40.732922000",
                    "lng": "-73.981409000"
                },
                {
                    "lat": "40.733068000",
                    "lng": "-73.981298000"
                },
                {
                    "lat": "40.733198000",
                    "lng": "-73.981198000"
                },
                {
                    "lat": "40.733259000",
                    "lng": "-73.981153000"
                },
                {
                    "lat": "40.733310000",
                    "lng": "-73.981116000"
                },
                {
                    "lat": "40.733596000",
                    "lng": "-73.980906000"
                },
                {
                    "lat": "40.733761000",
                    "lng": "-73.980784000"
                },
                {
                    "lat": "40.733827000",
                    "lng": "-73.980737000"
                },
                {
                    "lat": "40.733882000",
                    "lng": "-73.980700000"
                },
                {
                    "lat": "40.734249000",
                    "lng": "-73.980442000"
                },
                {
                    "lat": "40.734372000",
                    "lng": "-73.980348000"
                },
                {
                    "lat": "40.734425000",
                    "lng": "-73.980308000"
                },
                {
                    "lat": "40.734484000",
                    "lng": "-73.980266000"
                },
                {
                    "lat": "40.734936000",
                    "lng": "-73.979943000"
                },
                {
                    "lat": "40.735004000",
                    "lng": "-73.979895000"
                },
                {
                    "lat": "40.735080000",
                    "lng": "-73.979844000"
                },
                {
                    "lat": "40.735293000",
                    "lng": "-73.979689000"
                },
                {
                    "lat": "40.735331000",
                    "lng": "-73.979660000"
                },
                {
                    "lat": "40.735406000",
                    "lng": "-73.979604000"
                },
                {
                    "lat": "40.735548000",
                    "lng": "-73.979497000"
                },
                {
                    "lat": "40.735593000",
                    "lng": "-73.979464000"
                },
                {
                    "lat": "40.735659000",
                    "lng": "-73.979412000"
                },
                {
                    "lat": "40.736157000",
                    "lng": "-73.979056000"
                },
                {
                    "lat": "40.736217000",
                    "lng": "-73.979013000"
                },
                {
                    "lat": "40.736287000",
                    "lng": "-73.978989000"
                },
                {
                    "lat": "40.736383000",
                    "lng": "-73.978917000"
                },
                {
                    "lat": "40.736796000",
                    "lng": "-73.978612000"
                },
                {
                    "lat": "40.736896000",
                    "lng": "-73.978541000"
                },
                {
                    "lat": "40.736995000",
                    "lng": "-73.978468000"
                },
                {
                    "lat": "40.737219000",
                    "lng": "-73.978305000"
                },
                {
                    "lat": "40.737494000",
                    "lng": "-73.978096000"
                },
                {
                    "lat": "40.737559000",
                    "lng": "-73.978048000"
                },
                {
                    "lat": "40.737617000",
                    "lng": "-73.978007000"
                },
                {
                    "lat": "40.737980000",
                    "lng": "-73.977742000"
                },
                {
                    "lat": "40.738042000",
                    "lng": "-73.977697000"
                },
                {
                    "lat": "40.738117000",
                    "lng": "-73.977643000"
                },
                {
                    "lat": "40.738170000",
                    "lng": "-73.977605000"
                },
                {
                    "lat": "40.738233000",
                    "lng": "-73.977559000"
                },
                {
                    "lat": "40.738589000",
                    "lng": "-73.977299000"
                },
                {
                    "lat": "40.738736000",
                    "lng": "-73.977192000"
                },
                {
                    "lat": "40.738796000",
                    "lng": "-73.977148000"
                },
                {
                    "lat": "40.738862000",
                    "lng": "-73.977100000"
                },
                {
                    "lat": "40.739359000",
                    "lng": "-73.976737000"
                },
                {
                    "lat": "40.739410000",
                    "lng": "-73.976700000"
                },
                {
                    "lat": "40.739468000",
                    "lng": "-73.976657000"
                },
                {
                    "lat": "40.739837000",
                    "lng": "-73.976390000"
                },
                {
                    "lat": "40.739980000",
                    "lng": "-73.976287000"
                },
                {
                    "lat": "40.740036000",
                    "lng": "-73.976247000"
                },
                {
                    "lat": "40.740088000",
                    "lng": "-73.976208000"
                },
                {
                    "lat": "40.740175000",
                    "lng": "-73.976143000"
                },
                {
                    "lat": "40.740453000",
                    "lng": "-73.975937000"
                },
                {
                    "lat": "40.740494000",
                    "lng": "-73.975905000"
                },
                {
                    "lat": "40.740594000",
                    "lng": "-73.975831000"
                },
                {
                    "lat": "40.740646000",
                    "lng": "-73.975794000"
                },
                {
                    "lat": "40.740706000",
                    "lng": "-73.975752000"
                },
                {
                    "lat": "40.741064000",
                    "lng": "-73.975492000"
                },
                {
                    "lat": "40.741198000",
                    "lng": "-73.975394000"
                },
                {
                    "lat": "40.741274000",
                    "lng": "-73.975338000"
                },
                {
                    "lat": "40.741355000",
                    "lng": "-73.975279000"
                },
                {
                    "lat": "40.742007000",
                    "lng": "-73.974804000"
                },
                {
                    "lat": "40.742163000",
                    "lng": "-73.974691000"
                },
                {
                    "lat": "40.742669000",
                    "lng": "-73.974323000"
                },
                {
                    "lat": "40.742728000",
                    "lng": "-73.974281000"
                },
                {
                    "lat": "40.742868000",
                    "lng": "-73.974176000"
                },
                {
                    "lat": "40.743016000",
                    "lng": "-73.974068000"
                },
                {
                    "lat": "40.743090000",
                    "lng": "-73.974014000"
                },
                {
                    "lat": "40.743148000",
                    "lng": "-73.974151000"
                },
                {
                    "lat": "40.743210000",
                    "lng": "-73.974298000"
                },
                {
                    "lat": "40.743640000",
                    "lng": "-73.975316000"
                },
                {
                    "lat": "40.743740000",
                    "lng": "-73.975552000"
                },
                {
                    "lat": "40.743991000",
                    "lng": "-73.976135000"
                },
                {
                    "lat": "40.744036000",
                    "lng": "-73.976239000"
                },
                {
                    "lat": "40.744111000",
                    "lng": "-73.976385000"
                },
                {
                    "lat": "40.744173000",
                    "lng": "-73.976500000"
                },
                {
                    "lat": "40.744847000",
                    "lng": "-73.978104000"
                },
                {
                    "lat": "40.745002000",
                    "lng": "-73.978471000"
                },
                {
                    "lat": "40.745061000",
                    "lng": "-73.978609000"
                },
                {
                    "lat": "40.745121000",
                    "lng": "-73.978746000"
                },
                {
                    "lat": "40.745694000",
                    "lng": "-73.980098000"
                },
                {
                    "lat": "40.745735000",
                    "lng": "-73.980197000"
                },
                {
                    "lat": "40.745735000",
                    "lng": "-73.980197000"
                },
                {
                    "lat": "40.745682000",
                    "lng": "-73.980238000"
                },
                {
                    "lat": "40.745173000",
                    "lng": "-73.980610000"
                },
                {
                    "lat": "40.745115000",
                    "lng": "-73.980650000"
                },
                {
                    "lat": "40.745056000",
                    "lng": "-73.980695000"
                },
                {
                    "lat": "40.744547000",
                    "lng": "-73.981066000"
                },
                {
                    "lat": "40.744495000",
                    "lng": "-73.981104000"
                },
                {
                    "lat": "40.744437000",
                    "lng": "-73.981148000"
                },
                {
                    "lat": "40.744266000",
                    "lng": "-73.981272000"
                },
                {
                    "lat": "40.743935000",
                    "lng": "-73.981512000"
                },
                {
                    "lat": "40.743883000",
                    "lng": "-73.981550000"
                },
                {
                    "lat": "40.743823000",
                    "lng": "-73.981599000"
                },
                {
                    "lat": "40.743323000",
                    "lng": "-73.981967000"
                },
                {
                    "lat": "40.743263000",
                    "lng": "-73.982007000"
                },
                {
                    "lat": "40.743233000",
                    "lng": "-73.982031000"
                },
                {
                    "lat": "40.743209000",
                    "lng": "-73.982050000"
                },
                {
                    "lat": "40.742703000",
                    "lng": "-73.982420000"
                },
                {
                    "lat": "40.742644000",
                    "lng": "-73.982463000"
                },
                {
                    "lat": "40.742588000",
                    "lng": "-73.982503000"
                },
                {
                    "lat": "40.742087000",
                    "lng": "-73.982867000"
                },
                {
                    "lat": "40.742024000",
                    "lng": "-73.982913000"
                },
                {
                    "lat": "40.741970000",
                    "lng": "-73.982952000"
                },
                {
                    "lat": "40.741472000",
                    "lng": "-73.983315000"
                },
                {
                    "lat": "40.741406000",
                    "lng": "-73.983364000"
                },
                {
                    "lat": "40.741351000",
                    "lng": "-73.983403000"
                },
                {
                    "lat": "40.740846000",
                    "lng": "-73.983771000"
                },
                {
                    "lat": "40.740787000",
                    "lng": "-73.983814000"
                },
                {
                    "lat": "40.740732000",
                    "lng": "-73.983854000"
                },
                {
                    "lat": "40.740353000",
                    "lng": "-73.984130000"
                },
                {
                    "lat": "40.740225000",
                    "lng": "-73.984222000"
                },
                {
                    "lat": "40.740167000",
                    "lng": "-73.984264000"
                },
                {
                    "lat": "40.740128000",
                    "lng": "-73.984170000"
                },
                {
                    "lat": "40.740085000",
                    "lng": "-73.984066000"
                },
                {
                    "lat": "40.739714000",
                    "lng": "-73.983182000"
                },
                {
                    "lat": "40.739625000",
                    "lng": "-73.982969000"
                },
                {
                    "lat": "40.739555000",
                    "lng": "-73.982801000"
                },
                {
                    "lat": "40.739496000",
                    "lng": "-73.982664000"
                },
                {
                    "lat": "40.739441000",
                    "lng": "-73.982702000"
                },
                {
                    "lat": "40.738941000",
                    "lng": "-73.983074000"
                },
                {
                    "lat": "40.738937000",
                    "lng": "-73.983077000"
                },
                {
                    "lat": "40.738835000",
                    "lng": "-73.983152000"
                },
                {
                    "lat": "40.738732000",
                    "lng": "-73.983220000"
                },
                {
                    "lat": "40.738206000",
                    "lng": "-73.983602000"
                },
                {
                    "lat": "40.738158000",
                    "lng": "-73.983638000"
                },
                {
                    "lat": "40.738122000",
                    "lng": "-73.983664000"
                },
                {
                    "lat": "40.737608000",
                    "lng": "-73.984039000"
                },
                {
                    "lat": "40.737543000",
                    "lng": "-73.984086000"
                },
                {
                    "lat": "40.737496000",
                    "lng": "-73.984120000"
                },
                {
                    "lat": "40.737314000",
                    "lng": "-73.984252000"
                },
                {
                    "lat": "40.737023000",
                    "lng": "-73.984464000"
                },
                {
                    "lat": "40.736962000",
                    "lng": "-73.984509000"
                },
                {
                    "lat": "40.736911000",
                    "lng": "-73.984546000"
                },
                {
                    "lat": "40.736437000",
                    "lng": "-73.984891000"
                },
                {
                    "lat": "40.736375000",
                    "lng": "-73.984936000"
                },
                {
                    "lat": "40.736321000",
                    "lng": "-73.984976000"
                },
                {
                    "lat": "40.735853000",
                    "lng": "-73.985317000"
                },
                {
                    "lat": "40.735791000",
                    "lng": "-73.985362000"
                },
                {
                    "lat": "40.735738000",
                    "lng": "-73.985401000"
                },
                {
                    "lat": "40.735528000",
                    "lng": "-73.985554000"
                },
                {
                    "lat": "40.735265000",
                    "lng": "-73.985745000"
                },
                {
                    "lat": "40.735203000",
                    "lng": "-73.985790000"
                },
                {
                    "lat": "40.735153000",
                    "lng": "-73.985827000"
                },
                {
                    "lat": "40.734681000",
                    "lng": "-73.986170000"
                },
                {
                    "lat": "40.734619000",
                    "lng": "-73.986216000"
                },
                {
                    "lat": "40.734568000",
                    "lng": "-73.986254000"
                },
                {
                    "lat": "40.734039000",
                    "lng": "-73.986638000"
                },
                {
                    "lat": "40.733979000",
                    "lng": "-73.986682000"
                },
                {
                    "lat": "40.733925000",
                    "lng": "-73.986721000"
                },
                {
                    "lat": "40.733750000",
                    "lng": "-73.986849000"
                },
                {
                    "lat": "40.733601000",
                    "lng": "-73.986957000"
                },
                {
                    "lat": "40.733387000",
                    "lng": "-73.987113000"
                },
                {
                    "lat": "40.733295000",
                    "lng": "-73.987180000"
                },
                {
                    "lat": "40.733333000",
                    "lng": "-73.987270000"
                },
                {
                    "lat": "40.733353000",
                    "lng": "-73.987317000"
                },
                {
                    "lat": "40.733479000",
                    "lng": "-73.987615000"
                },
                {
                    "lat": "40.733795000",
                    "lng": "-73.988361000"
                },
                {
                    "lat": "40.733932000",
                    "lng": "-73.988699000"
                },
                {
                    "lat": "40.733964000",
                    "lng": "-73.988777000"
                },
                {
                    "lat": "40.734003000",
                    "lng": "-73.988870000"
                },
                {
                    "lat": "40.734031000",
                    "lng": "-73.988937000"
                },
                {
                    "lat": "40.734285000",
                    "lng": "-73.989540000"
                },
                {
                    "lat": "40.734319000",
                    "lng": "-73.989620000"
                },
                {
                    "lat": "40.734382000",
                    "lng": "-73.989770000"
                },
                {
                    "lat": "40.734428000",
                    "lng": "-73.989890000"
                },
                {
                    "lat": "40.734442000",
                    "lng": "-73.989925000"
                },
                {
                    "lat": "40.734481000",
                    "lng": "-73.990018000"
                },
                {
                    "lat": "40.734742000",
                    "lng": "-73.990632000"
                },
                {
                    "lat": "40.734787000",
                    "lng": "-73.990735000"
                },
                {
                    "lat": "40.734787000",
                    "lng": "-73.990735000"
                },
                {
                    "lat": "40.734704000",
                    "lng": "-73.990798000"
                },
                {
                    "lat": "40.734602000",
                    "lng": "-73.990826000"
                },
                {
                    "lat": "40.734441000",
                    "lng": "-73.990859000"
                },
                {
                    "lat": "40.734050000",
                    "lng": "-73.990949000"
                },
                {
                    "lat": "40.733981000",
                    "lng": "-73.990953000"
                },
                {
                    "lat": "40.733916000",
                    "lng": "-73.990959000"
                },
                {
                    "lat": "40.733273000",
                    "lng": "-73.991099000"
                },
                {
                    "lat": "40.733214000",
                    "lng": "-73.991114000"
                },
                {
                    "lat": "40.733151000",
                    "lng": "-73.991128000"
                },
                {
                    "lat": "40.732971000",
                    "lng": "-73.991169000"
                },
                {
                    "lat": "40.732518000",
                    "lng": "-73.991273000"
                },
                {
                    "lat": "40.732449000",
                    "lng": "-73.991289000"
                },
                {
                    "lat": "40.732398000",
                    "lng": "-73.991300000"
                },
                {
                    "lat": "40.732363000",
                    "lng": "-73.991308000"
                },
                {
                    "lat": "40.732169000",
                    "lng": "-73.991351000"
                },
                {
                    "lat": "40.731964000",
                    "lng": "-73.991396000"
                },
                {
                    "lat": "40.731825000",
                    "lng": "-73.991426000"
                },
                {
                    "lat": "40.731805000",
                    "lng": "-73.991433000"
                },
                {
                    "lat": "40.731744000",
                    "lng": "-73.991462000"
                },
                {
                    "lat": "40.731681000",
                    "lng": "-73.991500000"
                },
                {
                    "lat": "40.731665000",
                    "lng": "-73.991510000"
                },
                {
                    "lat": "40.731228000",
                    "lng": "-73.991870000"
                },
                {
                    "lat": "40.731166000",
                    "lng": "-73.991921000"
                },
                {
                    "lat": "40.731117000",
                    "lng": "-73.991964000"
                },
                {
                    "lat": "40.730646000",
                    "lng": "-73.992362000"
                },
                {
                    "lat": "40.730602000",
                    "lng": "-73.992400000"
                },
                {
                    "lat": "40.730547000",
                    "lng": "-73.992446000"
                },
                {
                    "lat": "40.730180000",
                    "lng": "-73.992756000"
                },
                {
                    "lat": "40.730080000",
                    "lng": "-73.992841000"
                },
                {
                    "lat": "40.730015000",
                    "lng": "-73.992896000"
                },
                {
                    "lat": "40.729706000",
                    "lng": "-73.993156000"
                },
                {
                    "lat": "40.729634000",
                    "lng": "-73.993217000"
                },
                {
                    "lat": "40.729581000",
                    "lng": "-73.993262000"
                },
                {
                    "lat": "40.729546000",
                    "lng": "-73.993291000"
                },
                {
                    "lat": "40.729528000",
                    "lng": "-73.993307000"
                },
                {
                    "lat": "40.729323000",
                    "lng": "-73.993481000"
                },
                {
                    "lat": "40.729072000",
                    "lng": "-73.993694000"
                }
            ]
        ],
        "59829": [
            [
                {
                    "lat": "40.731521553",
                    "lng": "-73.982437644"
                },
                {
                    "lat": "40.732421766",
                    "lng": "-73.981783509"
                },
                {
                    "lat": "40.733338227",
                    "lng": "-73.981103892"
                },
                {
                    "lat": "40.733764017",
                    "lng": "-73.980810191"
                },
                {
                    "lat": "40.734177609",
                    "lng": "-73.980493691"
                },
                {
                    "lat": "40.734968203",
                    "lng": "-73.979911653"
                },
                {
                    "lat": "40.734533249",
                    "lng": "-73.978833407"
                },
                {
                    "lat": "40.732692982",
                    "lng": "-73.974481164"
                },
                {
                    "lat": "40.731886659",
                    "lng": "-73.974275124"
                },
                {
                    "lat": "40.730970569",
                    "lng": "-73.974058356"
                },
                {
                    "lat": "40.730478621",
                    "lng": "-73.974418047"
                },
                {
                    "lat": "40.729829147",
                    "lng": "-73.974881002"
                },
                {
                    "lat": "40.729254828",
                    "lng": "-73.975300479"
                },
                {
                    "lat": "40.728720199",
                    "lng": "-73.975691937"
                },
                {
                    "lat": "40.728667083",
                    "lng": "-73.975734816"
                },
                {
                    "lat": "40.728656651",
                    "lng": "-73.975761602"
                },
                {
                    "lat": "40.728658147",
                    "lng": "-73.975788352"
                },
                {
                    "lat": "40.728669043",
                    "lng": "-73.975821890"
                },
                {
                    "lat": "40.728705347",
                    "lng": "-73.975906389"
                },
                {
                    "lat": "40.729243418",
                    "lng": "-73.977164365"
                },
                {
                    "lat": "40.729229132",
                    "lng": "-73.977446017"
                },
                {
                    "lat": "40.731377721",
                    "lng": "-73.982538750"
                },
                {
                    "lat": "40.732374859",
                    "lng": "-73.984909271"
                },
                {
                    "lat": "40.733343274",
                    "lng": "-73.987207188"
                },
                {
                    "lat": "40.730147036",
                    "lng": "-73.989514790"
                },
                {
                    "lat": "40.731172418",
                    "lng": "-73.991926915"
                },
                {
                    "lat": "40.728429734",
                    "lng": "-73.994250310"
                },
                {
                    "lat": "40.727855594",
                    "lng": "-73.993123728"
                },
                {
                    "lat": "40.727529902",
                    "lng": "-73.992474606"
                },
                {
                    "lat": "40.727070054",
                    "lng": "-73.991487526"
                },
                {
                    "lat": "40.727404306",
                    "lng": "-73.991377884"
                },
                {
                    "lat": "40.727551105",
                    "lng": "-73.991304287"
                },
                {
                    "lat": "40.727750752",
                    "lng": "-73.991182411"
                },
                {
                    "lat": "40.728321683",
                    "lng": "-73.990759279"
                },
                {
                    "lat": "40.729534668",
                    "lng": "-73.989872782"
                },
                {
                    "lat": "40.727593062",
                    "lng": "-73.985295565"
                },
                {
                    "lat": "40.729381636",
                    "lng": "-73.984004410"
                },
                {
                    "lat": "40.730088852",
                    "lng": "-73.983458909"
                },
                {
                    "lat": "40.730678173",
                    "lng": "-73.983040813"
                },
                {
                    "lat": "40.731085636",
                    "lng": "-73.982747275"
                },
                {
                    "lat": "40.731523585",
                    "lng": "-73.982437644"
                }
            ]
        ],
        "59830": [
            [
                {
                    "lat": "40.729077000",
                    "lng": "-73.993748000"
                },
                {
                    "lat": "40.724085546",
                    "lng": "-73.997926187"
                },
                {
                    "lat": "40.721437338",
                    "lng": "-74.000142273"
                },
                {
                    "lat": "40.720850913",
                    "lng": "-74.000663502"
                },
                {
                    "lat": "40.720058827",
                    "lng": "-73.999041777"
                },
                {
                    "lat": "40.716605457",
                    "lng": "-74.002161737"
                },
                {
                    "lat": "40.715661100",
                    "lng": "-74.003006408"
                },